{
  "events": [
    {
      "id": "1",
      "title": "Neighborhood Summer BBQ",
      "location": "Helsinki",
      "address": "Töölönlahdenkatu 4",
      "postalCode": "00100",
      "startDate": "2025-06-15",
      "endDate": "2025-06-15",
      "description": "Community BBQ with traditional Finnish grilling and local neighbors.",
      "category": "culture",
      "imageUrl": "",
      "startTime": "15:00",
      "endTime": "19:00"
    },
    {
      "id": "3",
      "title": "Coffee & Stories Morning",
      "location": "Vantaa",
      "address": "Kielotie 13",
      "postalCode": "01300",
      "startDate": "2025-06-28",
      "endDate": "2025-06-28",
      "description": "Share life stories and experiences over freshly brewed coffee and pastries.",
      "category": "education",
      "imageUrl": "",
      "startTime": "10:00",
      "endTime": "12:00"
    },
    {
      "id": "4",
      "title": "Green Tech Garden Party",
      "location": "Helsinki",
      "address": "Lutherinkatu 3",
      "postalCode": "00100",
      "startDate": "2025-08-02",
      "endDate": "2025-08-02",
      "description": "Outdoor gathering showcasing local eco-friendly innovations and sustainability tips.",
      "category": "culture",
      "imageUrl": "",
      "startTime": "14:00",
      "endTime": "18:00"
    },
    {
      "id": "5",
      "title": "Midsummer Celebration",
      "location": "Espoo",
      "address": "Kulttuuriaukio 2",
      "postalCode": "02100",
      "startDate": "2025-06-21",
      "endDate": "2025-06-21",
      "description": "Traditional Finnish Midsummer celebration with bonfire, dancing, and local food.",
      "category": "culture",
      "imageUrl": "",
      "startTime": "18:00",
      "endTime": "23:00"
    },
    {
      "id": "6",
      "title": "Community Garden Workshop",
      "location": "Helsinki",
      "address": "Unioninkatu 36",
      "postalCode": "00170",
      "startDate": "2025-06-21",
      "endDate": "2025-06-22",
      "description": "Learn organic gardening and share homegrown vegetables with neighbors.",
      "category": "technology",
      "imageUrl": "",
      "startTime": "10:00",
      "endTime": "15:00"
    },
    {
      "id": "7",
      "title": "Remote Work Sauna Evening",
      "location": "Vantaa",
      "address": "Kuusijärventie 11",
      "postalCode": "01260",
      "startDate": "2025-08-15",
      "endDate": "2025-08-15",
      "description": "Sauna session and casual discussion about remote work culture and tips.",
      "category": "culture",
      "imageUrl": "",
      "startTime": "17:00",
      "endTime": "21:00"
    },
    {
      "id": "8",
      "title": "Farmers Market Breakfast",
      "location": "Helsinki",
      "address": "Yliopistonkatu 4",
      "postalCode": "00100",
      "startDate": "2025-07-05",
      "endDate": "2025-07-05",
      "description": "Community breakfast featuring local produce and homemade goods.",
      "category": "technology",
      "imageUrl": "",
      "startTime": "08:30",
      "endTime": "11:00"
    },
    {
      "id": "9",
      "title": "Outdoor Movie Night",
      "location": "Espoo",
      "address": "Ahertajankatu 5",
      "postalCode": "02100",
      "startDate": "2025-08-23",
      "endDate": "2025-08-23",
      "description": "Watch a classic film under the stars with popcorn and local snacks.",
      "category": "entertainment",
      "imageUrl": "",
      "startTime": "21:00",
      "endTime": "23:30"
    },
    {
      "id": "10",
      "title": "Traditional Crafts Circle",
      "location": "Helsinki",
      "address": "Töölönlahdenkatu 2",
      "postalCode": "00100",
      "startDate": "2025-08-09",
      "endDate": "2025-08-09",
      "description": "Learn traditional Finnish handicrafts like knitting and woodworking.",
      "category": "culture",
      "imageUrl": "",
      "startTime": "14:00",
      "endTime": "17:00"
    },
    {
      "id": "11",
      "title": "Summer Jazz Jam Session",
      "location": "Helsinki",
      "address": "Puistokatu",
      "postalCode": "00140",
      "startDate": "2025-07-19",
      "endDate": "2025-07-19",
      "description": "Outdoor jazz jam session with local musicians and music lovers.",
      "category": "culture",
      "imageUrl": "",
      "startTime": "16:00",
      "endTime": "20:00"
    },
    {
      "id": "12",
      "title": "Morning Run Club",
      "location": "Espoo",
      "address": "Keskuspuisto",
      "postalCode": "02100",
      "startDate": "2025-06-07",
      "endDate": "2025-08-30",
      "description": "Weekly morning runs through the park for all fitness levels.",
      "category": "sport",
      "imageUrl": "",
      "startTime": "07:00",
      "endTime": "08:30"
    },
    {
      "id": "13",
      "title": "Finnish Language Café",
      "location": "Vantaa",
      "address": "Jokiniemenkatu 7",
      "postalCode": "01300",
      "startDate": "2025-07-08",
      "endDate": "2025-07-08",
      "description": "Casual Finnish conversation practice over coffee and traditional pastries.",
      "category": "education",
      "imageUrl": "",
      "startTime": "18:00",
      "endTime": "20:00"
    },
    {
      "id": "14",
      "title": "Urban Nature Walk",
      "location": "Helsinki",
      "address": "Suomenlinna",
      "postalCode": "00190",
      "startDate": "2025-06-14",
      "endDate": "2025-06-14",
      "description": "Guided walk exploring Helsinki's hidden natural spots and local history.",
      "category": "travel",
      "imageUrl": "",
      "startTime": "10:00",
      "endTime": "13:00"
    },
    {
      "id": "15",
      "title": "Comedy Open Mic Night",
      "location": "Espoo",
      "address": "Tapiolankatu",
      "postalCode": "02100",
      "startDate": "2025-08-16",
      "endDate": "2025-08-16",
      "description": "Friendly open mic night for aspiring comedians and comedy lovers.",
      "category": "entertainment",
      "imageUrl": "",
      "startTime": "19:30",
      "endTime": "21:30"
    },
    {
      "id": "16",
      "title": "Football Skills Practice",
      "location": "Vantaa",
      "address": "Iskoskuja 3",
      "postalCode": "01600",
      "startDate": "2025-07-13",
      "endDate": "2025-07-13",
      "description": "Casual football skills practice and friendly matches for all ages.",
      "category": "sport",
      "imageUrl": "",
      "startTime": "10:00",
      "endTime": "12:00"
    },
    {
      "id": "17",
      "title": "Sami Culture Storytelling Evening",
      "location": "Helsinki",
      "address": "Mannerheimintie 34",
      "postalCode": "00100",
      "startDate": "2025-08-01",
      "endDate": "2025-08-01",
      "description": "Evening of traditional Sami stories, crafts, and cultural sharing.",
      "category": "culture",
      "imageUrl": "",
      "startTime": "18:00",
      "endTime": "20:30"
    },
    {
      "id": "18",
      "title": "Island Hopping Day Trip",
      "location": "Helsinki",
      "address": "Kauppatori",
      "postalCode": "00170",
      "startDate": "2025-07-20",
      "endDate": "2025-07-20",
      "description": "Small group boat trip exploring nearby archipelago islands.",
      "category": "travel",
      "imageUrl": "",
      "startTime": "09:00",
      "endTime": "17:00"
    },
    {
      "id": "19",
      "title": "Community Potluck Dinner",
      "location": "Espoo",
      "address": "Otakaari 1",
      "postalCode": "02150",
      "startDate": "2025-06-29",
      "endDate": "2025-06-29",
      "description": "Everyone brings a dish to share in this friendly neighborhood gathering.",
      "category": "travel",
      "imageUrl": "",
      "startTime": "17:00",
      "endTime": "20:00"
    }
  ]
}